City_ID,City,Lat,Lng,Max Temp,Humidity,Cloudiness,Wind Speed,Country,Date
0,busselton,-33.65,115.3333,11.7,11.7,68,8.9,AU,1681418538
1,vaini,-21.2,-175.2,28.09,28.09,20,3.6,TO,1681418538
2,cidreira,-30.1811,-50.2056,19.22,19.22,100,4.62,BR,1681418509
3,san patricio,28.017,-97.5169,27.88,24.91,5,5.48,US,1681418539
4,jamestown,42.097,-79.2353,26.8,21.77,0,5.66,US,1681418529
5,arraial do cabo,-22.9661,-42.0278,27.98,26.92,0,6.69,BR,1681418539
6,makakilo city,21.3469,-158.0858,27.18,23.32,0,7.2,US,1681418540
7,newport,51.5877,-2.9984,7.6,5.72,100,3.58,GB,1681418533
8,cockburn town,21.4612,-71.1419,25.82,25.82,51,6.03,TC,1681418541
9,guaruja,-23.9931,-46.2564,27.92,27.69,0,3.6,BR,1681418541
10,san borja,-14.8167,-66.85,29.58,29.58,95,1.32,BO,1681418332
11,lompoc,34.6391,-120.4579,21.68,13.85,20,10.73,US,1681418541
12,hovd,48.0056,91.6419,-1.2,-1.2,22,3.58,MN,1681418542
13,castro,-24.7911,-50.0119,18.53,18.53,61,2.25,BR,1681418542
14,lagoa,39.05,-27.9833,16.49,16.49,100,4.86,PT,1681418542
15,new norfolk,-42.7826,147.0587,12.18,9.95,63,0.2,AU,1681418543
16,atuona,-9.8,-139.0333,26.64,26.64,97,2.51,PF,1681418543
17,souillac,-20.5167,57.5167,24.21,24.21,20,2.57,MU,1681418544
18,kaeo,-35.1,173.7833,19.62,19.62,54,3.94,NZ,1681418544
19,kruisfontein,-34.0033,24.7314,14.38,14.38,0,6.41,ZA,1681418544
20,torbay,47.6666,-52.7314,4.6,0.09,100,5.66,CA,1681418544
21,lebu,-37.6167,-73.65,15.36,15.36,38,2.5,CL,1681418545
22,port hardy,50.6996,-127.4199,8.1,7.0,100,4.12,CA,1681418535
23,rikitea,-23.1203,-134.9692,22.38,22.38,100,5.2,PF,1681418545
24,sinnamary,5.3833,-52.95,26.71,26.71,87,4.25,GF,1681418546
25,rocha,-34.4833,-54.3333,15.22,15.22,3,5.18,UY,1681418546
26,valdivia,-39.8142,-73.2459,22.05,22.05,89,1.34,CL,1681418546
27,bhuj,23.2667,69.6667,26.07,26.07,0,3.7,IN,1681418547
28,san juan,-31.5375,-68.5364,19.38,19.38,59,6.65,AR,1681418428
29,sungai besar,3.6746,100.9867,25.61,25.61,63,2.41,MY,1681418548
30,tasiilaq,65.6145,-37.6368,3.09,3.09,95,1.21,GL,1681418548
31,cape town,-33.9258,18.4232,19.1,17.29,40,1.79,ZA,1681418388
32,dikson,73.5069,80.5464,-24.01,-24.01,93,4.66,RU,1681418548
33,broken hill,-31.95,141.4333,12.22,12.22,7,2.45,AU,1681418549
34,svetlogorsk,52.6333,29.7333,8.07,8.07,100,4.23,BY,1681418549
35,sarangani,5.4033,125.4636,27.88,27.88,42,1.13,PH,1681418549
36,kaitangata,-46.2817,169.8464,14.96,14.96,63,5.55,NZ,1681418550
37,saint-ambroise,48.5501,-71.3324,17.78,14.17,98,1.03,CA,1681418550
38,port alfred,-33.5906,26.891,14.54,14.54,20,0.45,ZA,1681418551
39,talnakh,69.4865,88.3972,-24.62,-24.62,100,3.52,RU,1681418551
40,kahului,20.8947,-156.47,26.01,23.5,40,6.17,US,1681418551
41,kilindoni,-7.9139,39.6668,26.9,26.9,99,4.91,TZ,1681418551
42,albany,42.6001,-73.9662,30.23,30.23,3,4.15,US,1681418433
43,carballo,43.213,-8.691,12.64,10.59,100,4.48,ES,1681418552
44,dingle,10.9995,122.6711,23.64,23.64,100,0.52,PH,1681418552
45,sept-iles,50.2001,-66.3821,5.0,3.24,100,2.57,CA,1681418537
46,roma,43.2128,-75.4557,28.08,28.08,0,5.66,US,1681418261
47,provideniya,64.3833,-173.3,-14.24,-14.24,6,1.79,RU,1681418553
48,raigarh,21.9,83.4,28.56,28.56,99,1.22,IN,1681418553
49,sitka,57.0531,-135.33,4.94,4.94,100,4.12,US,1681418553
50,punta arenas,-53.15,-70.9167,8.01,6.73,0,2.57,CL,1681418430
51,mataura,-46.1927,168.8643,11.38,11.38,9,3.58,NZ,1681418554
52,pisco,-13.7,-76.2167,29.03,27.23,17,8.75,PE,1681418554
53,saskylakh,71.9167,114.0833,-26.06,-26.06,53,2.82,RU,1681418554
54,lebedyn,50.5852,34.4849,8.81,8.81,100,5.39,UA,1681418344
55,chuy,-33.6971,-53.4616,15.32,15.32,13,4.45,UY,1681418555
56,carnarvon,-24.8667,113.6333,20.54,20.54,82,12.46,AU,1681418555
57,kanniyakumari,8.0833,77.5667,27.6,27.6,64,3.28,IN,1681418416
58,namibe,-15.1961,12.1522,23.18,23.18,22,2.08,AO,1681418556
59,saint-joseph,-21.3667,55.6167,24.21,22.28,88,1.33,RE,1681418556
60,east london,-33.0153,27.9116,18.01,18.01,71,5.51,ZA,1681418556
61,ambilobe,-13.2,49.05,22.51,22.51,16,1.24,MG,1681418556
62,mezen,65.8522,44.24,-16.44,-16.44,22,1.38,RU,1681418557
63,saint-philippe,-21.3585,55.7679,24.77,22.84,77,0.78,RE,1681418557
64,neuquen,-38.9516,-68.0591,13.94,13.94,0,3.09,AR,1681418557
65,nikolskoye,59.7035,30.7861,3.94,1.55,100,4.59,RU,1681418557
66,kapaa,22.0752,-159.319,25.99,24.71,16,4.02,US,1681418558
67,ushuaia,-54.8,-68.3,8.79,7.81,0,1.54,AR,1681418558
68,casablanca,33.5928,-7.6192,15.74,14.01,7,4.02,MA,1681418431
69,roebourne,-20.7833,117.1333,27.82,27.82,100,9.72,AU,1681418558
70,mayo,38.8876,-76.5119,32.29,26.1,0,6.69,US,1681418559
71,kirkwall,58.9848,-2.9587,6.03,4.98,75,0.51,GB,1681418559
72,dawson creek,55.7666,-120.2362,8.8,8.8,40,5.14,CA,1681418559
73,rabaul,-4.1967,152.1721,26.83,26.83,99,2.19,PG,1681418560
74,barabai,-2.5833,115.3833,23.49,23.49,96,0.43,ID,1681418560
75,iqaluit,63.7506,-68.5145,-6.15,-6.28,100,0.0,CA,1681418560
76,leh,34.1667,77.5833,-5.63,-5.63,4,1.69,IN,1681418561
77,sao filipe,14.8961,-24.4956,23.32,23.32,65,2.37,CV,1681418561
78,port augusta,-32.5,137.7667,13.88,13.88,45,2.15,AU,1681418561
79,annau,37.8876,58.516,23.72,23.72,100,15.43,TM,1681418562
80,barrow,71.2906,-156.7887,-20.99,-20.99,0,3.6,US,1681418562
81,hilo,19.7297,-155.09,20.85,19.79,100,3.09,US,1681418562
82,beringovskiy,63.05,179.3167,-16.26,-16.26,43,3.03,RU,1681418562
83,nouadhibou,20.931,-17.0347,22.99,22.99,40,4.12,MR,1681418563
84,erenhot,43.6475,111.9767,-0.6,-0.6,1,11.83,CN,1681418563
85,butaritari,3.0707,172.7902,27.39,27.39,46,5.7,KI,1681418563
86,puerto colombia,10.9878,-74.9547,31.05,31.05,6,11.22,CO,1681418564
87,egvekinot,66.3167,-179.1667,-18.61,-18.61,15,2.2,RU,1681418564
88,hermanus,-34.4187,19.2345,17.67,17.67,51,7.04,ZA,1681418564
89,kavieng,-2.5744,150.7967,28.34,28.34,44,5.36,PG,1681418565
90,yellowknife,62.456,-114.3525,-3.71,-4.13,100,3.09,CA,1681418399
91,vila franca do campo,37.7167,-25.4333,17.23,17.23,60,2.46,PT,1681418565
92,sebeta,8.9167,38.6167,17.02,17.02,91,2.06,ET,1681418565
93,yaan,7.3833,8.5667,31.27,31.27,21,4.4,NG,1681418566
94,anadyr,64.75,177.4833,-22.72,-22.72,0,3.0,RU,1681418566
95,maarianhamina,60.0973,19.9348,5.92,4.9,0,6.69,AX,1681418566
96,abu zabad,12.35,29.25,25.97,25.97,0,4.69,SD,1681418566
97,broome,42.2506,-75.833,30.21,27.43,0,3.6,US,1681418547
98,mariental,-24.6333,17.9667,19.7,19.7,0,4.51,NA,1681418567
99,nanakuli,21.3906,-158.1547,27.97,24.12,0,5.14,US,1681418567
100,lodja,-3.4833,23.4333,21.27,21.27,47,1.22,CD,1681418568
101,esperance,-33.8667,121.9,14.05,14.05,83,10.75,AU,1681418568
102,vestmannaeyjar,63.4427,-20.2734,6.84,6.84,100,2.35,IS,1681418568
103,thunder bay,48.4001,-89.3168,8.99,6.95,75,5.14,CA,1681418568
104,codrington,-38.2667,141.9667,11.36,11.36,6,3.71,AU,1681418569
105,onguday,50.75,86.15,-0.45,-0.45,61,1.38,RU,1681418569
106,necochea,-38.5473,-58.7368,13.15,13.15,100,7.99,AR,1681418569
107,kutulik,53.3508,102.7839,-4.08,-4.08,14,4.23,RU,1681418570
108,povenets,62.8487,34.8262,-5.81,-5.81,5,3.47,RU,1681418570
109,salym,60.0625,71.4789,-16.26,-16.26,16,2.76,RU,1681418428
110,ancud,-41.8697,-73.8203,14.48,14.48,6,1.36,CL,1681418571
111,havre-saint-pierre,50.2334,-63.5986,3.2,1.0,100,6.69,CA,1681418571
112,salvador,13.8333,-88.9167,32.02,28.22,100,1.74,SV,1681418571
113,olafsvik,64.8945,-23.7142,3.71,3.71,94,3.29,IS,1681418571
114,bredasdorp,-34.5322,20.0403,16.59,16.59,15,6.98,ZA,1681418572
115,mar del plata,-38.0023,-57.5575,15.05,14.41,40,7.2,AR,1681418572
116,granadilla de abona,28.1188,-16.576,16.22,13.98,0,11.83,ES,1681418572
117,yongchang,30.0381,119.7317,15.32,15.32,100,1.57,CN,1681418572
118,hithadhoo,-0.6,73.0833,28.31,28.31,69,3.5,MV,1681418573
119,saint anthony,45.0205,-93.218,30.59,28.95,0,9.77,US,1681418573
120,marquette,46.5333,-87.6335,17.69,6.3,73,2.93,US,1681418573
121,pevek,69.7008,170.3133,-16.9,-16.9,96,1.55,RU,1681418573
122,thompson,55.7435,-97.8558,6.09,6.09,75,1.03,CA,1681418360
123,barra,-11.0894,-43.1417,28.36,28.36,76,2.0,BR,1681418574
124,blairmore,49.6,-114.4353,6.1,2.77,100,3.6,CA,1681418408
125,brae,60.3964,-1.353,6.63,6.63,100,4.79,GB,1681418574
126,avarua,-21.2078,-159.775,27.03,27.03,84,2.57,CK,1681418574
127,miles city,46.4083,-105.8406,7.54,7.54,100,6.69,US,1681418575
128,huntsville,34.7304,-86.5861,22.45,18.97,100,7.15,US,1681418539
129,vao,-22.6667,167.4833,23.87,23.87,100,2.81,NC,1681418575
130,bandarbeyla,9.4942,50.8122,28.14,28.14,63,3.75,SO,1681418576
131,leningradskiy,69.3833,178.4167,-19.31,-19.31,69,1.86,RU,1681418576
132,husavik,66.0449,-17.3389,2.24,2.24,95,2.1,IS,1681418576
133,katsuura,35.1333,140.3,16.93,16.93,76,7.5,JP,1681418577
134,victoria,22.2855,114.1577,24.1,22.76,94,3.58,HK,1681418295
135,bluff,-46.6,168.3333,11.56,11.56,7,8.05,NZ,1681418577
136,aksu,41.1231,80.2644,12.59,12.59,51,2.02,CN,1681418577
137,iquique,-20.2208,-70.1431,24.02,24.02,2,2.35,CL,1681418290
138,itarema,-2.9248,-39.9167,25.52,25.52,98,5.68,BR,1681418578
139,hay river,60.8156,-115.7999,-1.02,-2.01,40,5.66,CA,1681418578
140,sorsk,54.0033,90.2467,-0.47,-0.47,100,3.23,RU,1681418578
141,bilma,18.6853,12.9164,26.73,26.73,56,2.66,NE,1681418578
142,hobart,-42.8794,147.3294,12.37,10.15,75,2.57,AU,1681418579
143,tuktoyaktuk,69.4541,-133.0374,-20.0,-20.0,75,4.12,CA,1681418579
144,hasaki,35.7333,140.8333,14.22,14.01,19,8.0,JP,1681418353
145,saint-paul,-21.0096,55.2707,25.06,23.13,86,0.45,RE,1681418579
146,kimberley,-28.7323,24.7623,15.83,15.83,54,4.12,ZA,1681418579
147,sola,-13.8833,167.55,27.57,27.57,100,3.72,VU,1681418580
148,payo,-3.7508,103.6372,22.79,22.79,100,0.73,ID,1681418580
149,kodiak,57.79,-152.4072,4.73,4.73,100,3.09,US,1681418580
150,terrace,54.5163,-128.6035,6.95,6.95,100,4.12,CA,1681418326
151,canchungo,12.0672,-16.0333,30.07,30.07,49,3.6,GW,1681418581
152,sobolevo,54.4299,31.8996,10.84,10.84,100,6.42,RU,1681418581
153,nanortalik,60.1432,-45.2371,1.59,1.59,100,1.66,GL,1681418581
154,maceio,-9.6658,-35.7353,27.69,27.69,0,4.63,BR,1681418581
155,shimoda,34.6667,138.95,13.39,13.39,100,4.39,JP,1681418582
156,ahipara,-35.1667,173.1667,18.64,18.64,55,3.53,NZ,1681418582
157,kizukuri,40.8061,140.3861,12.75,11.73,99,4.43,JP,1681418582
158,nome,64.5011,-165.4064,-17.13,-20.96,0,0.0,US,1681418003
159,narsaq,60.9167,-46.05,9.12,9.12,99,1.63,GL,1681418583
160,strelka,58.0728,93.0344,1.2,1.2,100,4.49,RU,1681418583
161,caravelas,-17.7125,-39.2481,24.59,24.59,26,2.23,BR,1681418584
162,alugan,12.2188,125.4808,25.01,25.01,52,2.31,PH,1681418584
163,petropavlovsk-kamchatskiy,53.0452,158.6483,-0.67,-0.68,100,2.0,RU,1681418584
164,grindavik,63.8424,-22.4338,6.97,6.26,100,3.6,IS,1681418585
165,pemba,-12.974,40.5178,25.39,25.39,20,2.57,MZ,1681418585
166,faanui,-16.4833,-151.75,27.76,27.76,19,3.59,PF,1681418585
167,bengkulu,-3.8004,102.2655,24.3,24.3,68,1.61,ID,1681418585
168,labuan,5.2767,115.2417,26.2,26.2,20,0.0,MY,1681418586
169,upornaya,44.3914,41.0196,4.28,4.28,50,2.23,RU,1681418586
170,ostrovnoy,68.0531,39.5131,-8.89,-8.89,16,7.31,RU,1681418587
171,saint george,37.1041,-113.5841,23.3,21.33,40,6.69,US,1681418587
172,camacha,33.0833,-16.3333,16.68,16.68,75,7.2,PT,1681418587
173,jinka,5.65,36.65,18.2,18.2,84,0.75,ET,1681418588
174,stromness,58.965,-3.296,5.98,4.93,100,2.17,GB,1681418341
175,saint-francois,46.4154,3.9054,5.53,4.69,0,1.54,FR,1681418588
176,natal,-5.795,-35.2094,28.36,28.12,40,6.69,BR,1681418394
177,sabha,27.0377,14.4283,21.26,21.26,6,4.95,LY,1681418589
178,atambua,-9.1061,124.8925,22.92,22.92,18,0.71,ID,1681418589
179,ribeira grande,38.5167,-28.7,17.22,17.1,75,5.81,PT,1681418590
180,altay,47.8667,88.1167,-1.49,-1.49,6,3.61,CN,1681418590
181,puerto ayora,-0.7393,-90.3518,31.98,29.75,77,2.68,EC,1681418590
182,cherskiy,68.75,161.3,-20.63,-20.63,63,1.93,RU,1681418590
183,santa marta,11.2408,-74.199,32.03,32.03,20,4.63,CO,1681418591
184,privodino,61.0781,46.5044,-7.5,-7.5,7,3.64,RU,1681418591
185,qaanaaq,77.484,-69.3632,-12.82,-12.82,3,0.75,GL,1681418591
186,chapais,49.7834,-74.8492,14.88,14.88,100,6.3,CA,1681418591
187,shatin,39.8357,45.3019,6.63,6.63,99,2.31,AM,1681418592
188,havelock,34.8791,-76.9013,26.98,20.52,0,7.2,US,1681418592
189,faya,18.3851,42.4509,18.06,15.29,1,1.45,SA,1681418593
190,bull savanna,17.8868,-77.5902,26.36,26.36,30,2.88,JM,1681418593
191,maragogi,-9.0122,-35.2225,25.19,25.19,92,3.25,BR,1681418374
192,tiksi,71.6872,128.8694,-12.95,-12.95,100,1.77,RU,1681418593
193,reconquista,-29.15,-59.65,18.41,18.41,100,5.29,AR,1681418594
194,kargil,34.5667,76.1,-2.94,-2.94,38,1.38,IN,1681418594
195,machado,-21.6747,-45.9197,19.77,19.77,55,0.72,BR,1681418594
196,tubuala,9.5167,-79.0333,26.7,26.7,80,6.58,PA,1681418595
197,bethel,41.3712,-73.414,31.83,27.49,0,3.6,US,1681418595
198,kralendijk,12.15,-68.2667,28.99,28.99,75,7.2,BQ,1681418595
199,portland,45.5234,-122.6762,11.93,8.69,100,2.24,US,1681417800
200,morayfield,-27.1167,152.95,18.38,13.56,0,1.31,AU,1681418596
201,mudgee,-32.5943,149.5871,13.68,13.68,49,1.67,AU,1681418596
202,grimshaw,56.1834,-117.6027,10.79,10.79,40,7.2,CA,1681418596
203,hamilton,39.1834,-84.5333,28.29,25.91,0,2.06,US,1681417831
204,khatanga,71.9667,102.5,-12.51,-12.51,100,10.29,RU,1681418598
205,ugoofaaru,5.6667,73.0,28.4,28.4,97,1.93,MV,1681418598
206,salta,-24.7859,-65.4117,16.33,15.32,100,3.6,AR,1681418598
207,marsh harbour,26.5412,-77.0636,24.93,24.93,3,5.92,BS,1681418599
208,tessalit,20.1986,1.0114,29.28,29.28,81,4.89,ML,1681418599
209,hofn,64.2539,-15.2082,5.51,5.51,100,5.29,IS,1681418599
210,berlevag,70.8578,29.0864,1.0,-1.11,0,8.23,NO,1681418599
211,laguna,38.421,-121.4238,19.24,16.62,0,6.17,US,1681418600
212,akyab,20.15,92.9,25.86,25.86,3,1.68,MM,1681418600
213,chokurdakh,70.6333,147.9167,-15.79,-15.79,100,2.7,RU,1681418601
214,matagami,49.7502,-77.6328,11.06,11.06,0,7.2,CA,1681418601
215,half moon bay,37.4636,-122.4286,20.49,11.98,0,4.12,US,1681418602
216,clyde river,70.4692,-68.5914,-11.87,-11.87,75,7.72,CA,1681418602
217,moskovskiy,55.5991,37.355,9.95,6.99,0,9.0,RU,1681418602
218,mount abu,24.6,72.7,20.36,20.36,86,2.75,IN,1681418603
219,pringsewu,-5.3582,104.9744,23.09,23.09,99,1.93,ID,1681418603
220,le port,-20.9373,55.2919,25.0,23.06,74,2.32,RE,1681418603
221,acajutla,13.5928,-89.8275,30.1,30.1,80,4.64,SV,1681418603
222,ponta do sol,32.6667,-17.1,19.84,17.85,68,3.17,PT,1681418604
223,gayny,60.3071,54.3241,-9.57,-9.57,36,3.74,RU,1681418604
224,aklavik,68.2191,-135.0107,-16.0,-16.0,75,3.09,CA,1681418539
225,san lorenzo,-25.3333,-57.5333,19.77,19.52,75,0.0,PY,1681418604
226,nhulunbuy,-12.2333,136.7667,24.34,24.34,69,0.0,AU,1681418604
227,bambous virieux,-20.3428,57.7575,24.56,24.14,20,2.57,MU,1681418605
228,mount isa,-20.7333,139.5,17.87,17.87,87,2.06,AU,1681418605
229,waipawa,-41.4122,175.5153,12.17,12.17,100,4.18,NZ,1681418606
230,barra do corda,-5.5,-45.25,24.4,24.4,55,2.01,BR,1681418606
231,san quintin,30.4833,-115.95,15.25,15.25,36,8.11,MX,1681418607
232,goderich,43.7501,-81.7165,24.18,24.18,10,6.69,CA,1681418607
233,praia da vitoria,38.7333,-27.0667,18.14,17.64,40,4.94,PT,1681418607
234,marawi,7.9986,124.2928,20.53,20.53,9,1.22,PH,1681418610
235,leninskoye,41.7589,69.3864,18.37,18.37,64,3.2,KZ,1681418610
236,tilichiki,60.4667,166.1,-19.59,-19.59,56,3.54,RU,1681418611
237,mahishadal,22.1833,87.9833,28.33,28.33,0,4.38,IN,1681418611
238,qui nhon,13.7667,109.2333,25.49,25.49,100,1.68,VN,1681418416
239,airai,-8.9266,125.4092,15.68,15.68,27,1.06,TL,1681418612
240,liverpool,53.4106,-2.9779,8.12,5.25,0,3.6,GB,1681418571
241,charlestown,-32.95,151.6667,18.81,14.45,90,1.79,AU,1681418612
242,skibbereen,51.55,-9.2667,7.56,7.56,100,2.63,IE,1681418613
243,turukhansk,65.8167,87.9833,-22.87,-22.87,100,2.17,RU,1681418613
244,vardo,70.3705,31.1107,-2.01,-2.01,0,10.8,NO,1681418614
245,carsamba,41.1989,36.7219,8.86,8.86,20,2.06,TR,1681418614
246,dubti,11.7361,41.0853,30.58,30.58,44,6.12,ET,1681418615
247,deputatskiy,69.3,139.9,-17.99,-17.99,100,0.87,RU,1681418615
248,mount gambier,-37.8333,140.7667,11.33,11.33,1,2.34,AU,1681418615
249,klaksvik,62.2266,-6.589,6.51,6.51,100,6.83,FO,1681418615
250,yulara,-25.2406,130.9889,23.37,23.37,100,4.85,AU,1681418616
251,ucluelet,48.9329,-125.5528,8.94,7.17,79,0.89,CA,1681418616
252,bodden town,19.2833,-81.25,30.0,28.85,20,3.6,KY,1681418616
253,sakaraha,-22.9,44.5333,20.2,20.2,2,1.31,MG,1681418617
254,sambava,-14.2667,50.1667,23.97,23.97,18,2.0,MG,1681418617
255,wanaka,-44.7,169.15,12.84,12.84,97,0.45,NZ,1681418617
256,ulladulla,-35.35,150.4667,14.32,14.32,98,5.21,AU,1681418617
257,yuanping,38.7153,112.7575,11.8,11.8,100,4.91,CN,1681418618
258,jalu,29.0331,21.5482,22.02,22.02,0,3.37,LY,1681418618
259,byron bay,-28.65,153.6167,13.17,13.17,32,5.26,AU,1681418505
260,te anau,-45.4167,167.7167,9.59,9.59,37,0.57,NZ,1681418618
261,bhinmal,25.0,72.25,27.07,27.07,100,3.92,IN,1681418619
262,nagornskiy,58.7731,57.5451,-10.68,-10.68,27,3.62,RU,1681418619
263,asau,46.4333,26.4,6.51,6.27,15,1.64,RO,1681418619
264,kula,38.5473,28.6498,9.16,9.16,1,1.21,TR,1681418619
265,suntar,62.1444,117.6319,-16.94,-16.94,78,1.94,RU,1681418619
266,upernavik,72.7868,-56.1549,-7.99,-7.99,100,2.66,GL,1681418620
267,gamba,-2.65,10.0,26.01,26.01,100,2.16,GA,1681418620
268,birjand,32.8663,59.2211,24.26,24.26,75,5.14,IR,1681418620
269,ketchikan,55.3422,-131.6461,4.28,4.28,98,1.08,US,1681418621
270,abilene,32.4487,-99.7331,28.82,26.63,0,8.23,US,1681418546
271,springs,-26.25,28.4,17.59,13.79,3,4.14,ZA,1681418622
272,gorkovskiy,45.6542,41.199,8.88,8.88,100,12.37,RU,1681418622
273,hue,16.4667,107.6,25.06,25.06,40,0.51,VN,1681418622
274,siva,29.2041,25.5195,20.32,20.32,2,1.16,EG,1681418622
275,oriximina,-1.7656,-55.8661,27.47,27.47,93,0.49,BR,1681418623
276,poum,-20.2333,164.0167,24.99,24.99,100,5.41,NC,1681418623
277,xining,36.6167,101.7667,3.16,3.16,94,1.49,CN,1681418529
278,argelia,2.2556,-77.2488,22.82,22.82,100,0.51,CO,1681418623
279,walvis bay,-22.9575,14.5053,15.8,15.8,0,5.59,NA,1681418623
280,praya,14.9215,-23.5087,24.3,24.3,71,6.69,CV,1681418624
281,lakes entrance,-37.8811,147.981,10.65,10.65,62,0.84,AU,1681418604
282,bairnsdale,-37.8333,147.6167,10.59,10.59,53,0.69,AU,1681418349
283,ca mau,9.1769,105.15,25.81,25.81,73,1.22,VN,1681418624
284,ambon,-3.6954,128.1814,25.08,25.08,40,2.57,ID,1681418625
285,mahebourg,-20.4081,57.7,24.58,24.16,20,2.57,MU,1681418625
286,batticaloa,7.7102,81.6924,26.22,26.22,8,2.02,LK,1681418625
287,fare,-16.7,-151.0167,27.5,27.5,19,3.58,PF,1681418626
288,hualmay,-11.0964,-77.6139,26.01,26.01,49,5.96,PE,1681418419
289,axim,4.8699,-2.2405,27.14,27.14,3,2.93,GH,1681418626
290,sungaipenuh,-2.0833,101.3833,17.52,17.52,92,0.6,ID,1681418626
291,lata,40.1629,-8.3327,13.78,13.78,93,1.24,PT,1681418626
292,tuatapere,-46.1333,167.6833,10.54,10.54,44,2.15,NZ,1681418400
293,itacoatiara,-3.1431,-58.4442,29.1,29.1,100,0.78,BR,1681418616
294,kita,13.0349,-9.4895,32.49,32.49,55,2.05,ML,1681418627
295,payakumbuh,-0.2202,100.6308,20.62,20.62,97,1.58,ID,1681418627
296,lavrentiya,65.5833,-171.0,-16.47,-16.47,15,3.27,RU,1681418627
297,mwingi,-0.9344,38.0601,19.73,19.73,88,0.95,KE,1681418628
298,lakselv,70.0513,24.9718,-0.1,-0.1,17,7.2,NO,1681418628
299,vallenar,-28.5708,-70.7581,25.95,25.95,0,3.79,CL,1681418628
300,iztapa,13.9333,-90.7075,31.77,31.77,82,5.5,GT,1681418629
301,tual,-5.6667,132.75,28.25,28.25,95,0.44,ID,1681418629
302,baykit,61.67,96.37,-13.11,-13.11,100,1.67,RU,1681418629
303,moose factory,51.2585,-80.6094,5.0,2.99,100,4.12,CA,1681418629
304,iberia,29.9502,-91.7507,22.25,20.99,40,3.09,US,1681418630
305,southbridge,42.0751,-72.0334,31.37,29.5,0,3.13,US,1681418630
306,the pas,53.8251,-101.2541,10.01,10.01,75,3.09,CA,1681418630
307,nueve de julio,-35.4444,-60.8831,17.2,17.2,60,2.24,AR,1681418630
308,kudahuvadhoo,2.6708,72.8944,28.41,28.41,12,0.85,MV,1681418630
309,kathmandu,27.7167,85.3167,17.69,16.12,20,1.03,NP,1681418255
310,ilulissat,69.2167,-51.1,-2.99,-2.99,100,2.06,GL,1681418631
311,acapulco,16.8634,-99.8901,30.9,30.9,40,7.2,MX,1681418353
312,flinders,-34.5833,150.8552,16.77,13.92,34,2.68,AU,1681418631
313,richards bay,-28.783,32.0377,20.39,20.39,57,2.58,ZA,1681418632
314,viedma,-40.8135,-62.9967,12.38,12.38,2,3.9,AR,1681418632
315,lugovoy,42.9472,72.7644,15.14,15.14,4,3.72,KZ,1681418632
316,ust-maya,60.4167,134.5333,-6.92,-6.92,100,0.56,RU,1681418632
317,nechi,8.0942,-74.7757,33.28,33.28,100,0.98,CO,1681418633
318,sao joao da barra,-21.6403,-41.0511,28.05,28.05,12,5.09,BR,1681418386
319,nguru,12.8791,10.4526,28.7,28.7,81,4.01,NG,1681418633
320,buchanan,5.8808,-10.0467,23.93,23.93,98,2.84,LR,1681418633
321,sangueya,10.7,-14.3667,25.35,25.35,8,2.03,GN,1681418633
322,coffs harbour,-30.3,153.1333,19.52,17.98,40,6.17,AU,1681418634
323,sao jose da coroa grande,-8.8978,-35.1478,25.52,25.52,78,3.19,BR,1681418634
324,shagonar,51.5333,92.8,-1.98,-1.98,100,0.33,RU,1681418634
325,longyearbyen,78.2186,15.6401,-0.09,-0.09,75,2.06,SJ,1681418634
326,sena madureira,-9.0656,-68.6569,29.76,29.76,100,1.8,BR,1681418635
327,port elizabeth,-33.918,25.5701,17.4,15.61,0,6.17,ZA,1681418635
328,amapa,1.0,-52.0,25.16,25.16,96,1.71,BR,1681418635
329,coquimbo,-29.9533,-71.3436,18.85,18.85,0,5.14,CL,1681418635
330,yar-sale,66.8333,70.8333,-18.09,-18.09,56,7.42,RU,1681418636
331,tairua,-37.0167,175.85,17.67,17.67,99,5.56,NZ,1681418636
332,cayenne,4.9333,-52.3333,25.02,25.02,75,1.54,GF,1681418599
333,coxim,-18.5067,-54.76,28.92,28.92,86,1.05,BR,1681418636
334,port arthur,38.8,121.2667,9.12,9.12,97,6.02,CN,1681418475
335,penzance,50.1186,-5.5371,9.38,9.31,100,7.62,GB,1681418637
336,honningsvag,70.9821,25.9704,0.86,0.86,0,8.23,NO,1681418637
337,coihaique,-45.5752,-72.0662,16.34,13.97,0,3.6,CL,1681418637
338,mangrol,21.1167,70.1167,26.14,26.14,96,5.55,IN,1681418637
339,khani,41.9563,42.9566,2.76,2.76,100,1.66,GE,1681418638
340,akita,39.7167,140.1167,10.3,10.3,100,3.76,JP,1681418638
341,zurrieq,35.8311,14.4742,16.09,15.73,0,8.75,MT,1681418638
342,port blair,11.6667,92.75,26.67,26.67,15,2.1,IN,1681418638
343,guacui,-20.7756,-41.6794,21.11,21.11,72,0.08,BR,1681418639
344,nacala,-14.5428,40.6728,23.02,23.02,89,2.25,MZ,1681418639
345,stornoway,58.2093,-6.3865,6.13,5.98,34,1.54,GB,1681418639
346,mutoko,-17.397,32.2268,16.82,16.82,100,2.09,ZW,1681418639
347,arlit,18.7369,7.3853,29.72,29.72,6,3.19,NE,1681418640
348,touros,-5.1989,-35.4608,26.15,26.15,100,4.94,BR,1681418640
349,springfield,37.2153,-93.2982,25.12,22.88,0,1.79,US,1681418640
350,tezpur,26.6333,92.8,23.04,23.04,12,2.11,IN,1681418640
351,niono,14.2526,-5.993,33.81,33.81,100,3.84,ML,1681418641
352,pimentel,-6.8367,-79.9342,30.16,30.16,75,5.14,PE,1681418641
353,norman wells,65.282,-126.8329,-9.98,-9.98,100,3.6,CA,1681418641
354,hokitika,-42.7167,170.9667,14.93,14.93,100,3.23,NZ,1681418642
355,upata,8.0086,-62.3989,31.77,31.77,72,3.66,VE,1681418643
356,aswan,24.0934,32.907,21.61,21.61,0,4.12,EG,1681418643
357,winneba,5.3511,-0.6231,27.61,27.61,3,4.37,GH,1681418643
358,khanpur,28.6453,70.6567,30.54,30.54,0,3.59,PK,1681418643
359,izmir,38.4622,27.0923,14.97,9.73,0,1.03,TR,1681418644
360,geraldton,-28.7667,114.6,18.23,18.23,75,10.8,AU,1681418644
361,tarauaca,-8.1614,-70.7656,28.7,28.7,96,1.79,BR,1681418581
362,fortuna,40.5982,-124.1573,13.29,10.19,48,1.79,US,1681418645
363,valparaiso,-33.0393,-71.6273,22.8,18.33,0,5.66,CL,1681418471
364,manavalakurichi,8.1333,77.3,26.94,26.94,63,2.96,IN,1681418645
365,kalabo,-14.97,22.6814,21.16,21.16,90,1.52,ZM,1681418646
366,lasa,46.6166,10.7002,3.49,1.87,100,3.57,IT,1681418646
367,jatiroto,-7.8833,111.1167,22.94,22.94,100,1.42,ID,1681418646
368,inirida,3.8653,-67.9239,31.19,31.19,88,0.36,CO,1681418646
369,morristown,36.214,-83.2949,27.97,26.28,69,4.59,US,1681418647
370,fairbanks,64.8378,-147.7164,-7.17,-12.0,40,1.54,US,1681418646
371,ikeda,34.8221,135.4298,13.0,9.63,100,1.03,JP,1681418648
372,paamiut,61.994,-49.6678,2.12,2.12,100,1.42,GL,1681418648
373,isangel,-19.55,169.2667,27.65,27.65,100,4.5,VU,1681418648
374,kangasala,61.4638,24.076,2.3,1.85,100,5.94,FI,1681418649
375,pangkalanbuun,-2.6833,111.6167,23.64,23.64,53,1.27,ID,1681418650
376,omsukchan,62.5333,155.8,-15.52,-15.52,23,2.16,RU,1681418650
377,tamandare,-8.7597,-35.1047,25.45,25.45,61,2.96,BR,1681418651
378,kenora,49.8167,-94.4337,7.54,7.1,100,4.12,CA,1681418589
379,henties bay,-22.116,14.2845,14.9,14.9,0,3.93,NA,1681418653
380,hesla,24.0667,85.8833,28.57,28.57,99,3.13,IN,1681418653
381,harper,4.375,-7.7169,27.35,27.35,36,2.02,LR,1681418654
382,saveh,35.0213,50.3566,12.95,12.95,0,11.18,IR,1681418655
383,kavaratti,10.5669,72.642,28.55,28.55,100,2.21,IN,1681418655
384,nizhniy kuranakh,58.8353,125.4869,-15.02,-15.02,99,0.86,RU,1681418655
385,nimaparha,20.0667,86.0167,27.22,27.22,0,3.58,IN,1681418655
386,bathsheba,13.2167,-59.5167,28.34,28.34,20,7.72,BB,1681418647
387,warkworth,-36.4,174.6667,19.68,18.62,35,5.38,NZ,1681418656
388,carangola,-20.7331,-42.0294,21.99,21.99,80,0.63,BR,1681418657
389,christchurch,-43.5333,172.6333,12.73,11.9,100,3.6,NZ,1681418638
390,terrytown,29.9102,-90.0326,22.22,20.0,75,5.14,US,1681418658
391,bonthe,7.5264,-12.505,26.69,26.69,8,3.42,SL,1681418658
392,greenlaw,55.7068,-2.4624,6.44,5.11,96,2.32,GB,1681418658
393,steinbach,50.1667,8.5667,8.12,4.23,0,1.03,DE,1681418659
394,santa rosa,14.3122,121.1114,24.99,23.9,100,0.78,PH,1681418660
395,surovikino,48.6078,42.8486,10.8,10.8,100,8.89,RU,1681418660
396,eureka,40.8021,-124.1637,15.93,10.34,60,2.68,US,1681418552
397,tutoia,-2.7619,-42.2744,26.61,26.61,82,3.45,BR,1681418661
398,san lawrenz,36.0553,14.204,16.03,15.67,94,2.24,MT,1681418662
399,santa teresa,10.2341,-66.6631,31.48,31.48,44,3.67,VE,1681418662
400,lichinga,-13.3128,35.2406,16.17,16.17,66,2.47,MZ,1681418663
401,mizan teferi,6.9833,35.5833,16.35,16.35,86,1.36,ET,1681418664
402,chernyshevskiy,63.0128,112.4714,-17.51,-17.51,41,2.02,RU,1681418664
403,camocim,-2.9022,-40.8411,26.2,26.2,90,3.69,BR,1681418664
404,palmer,42.1584,-72.3287,31.78,30.05,0,7.2,US,1681418664
405,tambopata,-12.7333,-69.1833,23.94,23.94,75,1.54,PE,1681418665
406,sioux lookout,50.1001,-91.917,8.04,8.04,100,3.6,CA,1681418543
407,trinidad,-14.8333,-64.9,29.17,29.17,55,2.34,BO,1681418666
408,oranjemund,-28.55,16.4333,14.74,14.74,100,3.75,NA,1681418666
409,luderitz,-26.6481,15.1594,16.26,16.26,33,6.56,NA,1681418666
410,goundam,16.4145,-3.6708,31.07,31.07,86,5.23,ML,1681418666
411,machico,32.7,-16.7667,19.84,17.85,40,5.66,PT,1681418667
412,lokhvytsya,50.3678,33.2602,8.73,8.73,100,4.0,UA,1681418667
413,buala,-8.145,159.5921,27.11,27.11,80,2.11,SB,1681418667
414,kampot,10.6167,104.1833,27.03,27.03,100,2.13,KH,1681418668
415,port lincoln,-34.7333,135.8667,16.09,16.09,94,6.76,AU,1681418668
416,sault sainte marie,46.5168,-84.3333,23.31,20.9,0,2.57,CA,1681418669
417,vraca,43.8422,18.3955,14.4,14.4,40,10.8,BA,1681418670
418,gigmoto,13.7796,124.39,25.89,25.89,68,1.61,PH,1681418670
419,buraydah,26.326,43.975,17.25,17.25,0,3.77,SA,1681418670
420,tacuarembo,-31.7333,-55.9833,18.76,18.76,70,4.51,UY,1681418671
421,taoudenni,22.6783,-3.9836,30.39,30.39,41,3.01,ML,1681418672
422,meulaboh,4.1363,96.1285,25.03,25.03,100,1.56,ID,1681418673
423,ayr,55.4627,-4.6339,8.06,6.63,75,6.69,GB,1681418674
424,morant bay,17.8815,-76.4093,30.39,29.79,38,5.03,JM,1681418674
425,nakhon nayok,14.1667,101.1,28.62,28.62,100,2.99,TH,1681418675
426,korla,41.7597,86.1469,11.31,11.31,8,2.71,CN,1681418675
427,guerrero negro,27.9769,-114.0611,17.66,17.66,5,9.05,MX,1681418649
428,brewster,41.3973,-73.6171,31.97,27.63,0,3.6,US,1681418676
429,cullinan,-25.6709,28.5236,17.68,13.63,1,2.26,ZA,1681418676
430,poso,-1.3959,120.7524,24.68,24.68,100,1.92,ID,1681418676
431,krupanj,44.3656,19.3619,11.04,11.04,100,2.39,RS,1681418676
432,calhoun,42.2506,-85.0005,28.17,26.08,0,6.69,US,1681418676
433,port-gentil,-0.7193,8.7815,26.98,26.98,20,1.03,GA,1681418677
434,raudeberg,61.9875,5.1352,8.31,5.37,6,2.25,NO,1681418677
435,dalmatovo,56.26,62.9362,-5.87,-5.87,100,7.88,RU,1681418677
436,mogadishu,2.0371,45.3438,27.88,27.88,100,5.59,SO,1681418393
437,grenaa,56.4158,10.8783,8.12,6.44,37,5.38,DK,1681418678
438,aasiaat,68.7098,-52.8699,-4.97,-4.97,88,0.38,GL,1681418678
439,fort saint james,54.4333,-124.25,4.05,4.05,97,2.1,CA,1681418678
440,beloha,-25.1667,45.05,20.5,20.5,7,3.49,MG,1681418640
441,madison,34.7334,-86.5667,22.38,18.72,100,6.71,US,1681418297
442,pacora,9.0833,-79.2833,32.99,30.26,75,5.14,PA,1681418644
443,preobrazheniye,42.9019,133.9064,4.47,4.47,1,2.24,RU,1681418679
444,chutove,49.7104,35.1603,8.76,8.76,100,2.35,UA,1681418679
445,haines junction,60.7522,-137.5108,1.97,1.97,100,2.06,CA,1681418679
446,verkhnevilyuysk,63.4453,120.3167,-17.37,-17.37,80,1.47,RU,1681418680
447,puerto suarez,-18.95,-57.8,25.31,25.31,75,6.17,BO,1681418680
448,grasse,43.6667,6.9167,9.42,7.36,0,5.66,FR,1681418680
449,los llanos de aridane,28.6585,-17.9182,17.86,17.85,100,6.17,ES,1681418680
450,vila velha,-20.3297,-40.2925,26.97,26.64,75,3.6,BR,1681418681
451,santa maria,-29.6842,-53.8069,17.61,17.61,75,2.57,BR,1681418681
452,pitimbu,-7.4706,-34.8086,28.33,28.33,81,3.65,BR,1681418681
453,san jose,37.3394,-121.895,19.65,14.14,20,6.26,US,1681418402
454,bulgan,48.8125,103.5347,-7.75,-7.75,13,1.2,MN,1681418681
455,dinagat,9.9561,125.5933,27.12,27.12,90,0.51,PH,1681418682
456,corowa,-36.0333,146.3833,7.54,7.54,0,2.27,AU,1681418682
457,plettenberg bay,-34.0527,23.3716,15.6,15.6,0,4.8,ZA,1681418682
458,teguise,29.0605,-13.564,17.12,17.12,20,8.23,ES,1681418683
459,marathon,44.9,-89.7668,28.58,26.27,0,7.2,US,1681418409
460,puerto maldonado,-12.6,-69.1833,24.22,24.22,75,1.54,PE,1681418467
461,sampang,-7.1872,113.2394,27.75,27.75,82,2.9,ID,1681418683
462,esfarayen,37.0765,57.5101,12.81,12.81,100,4.08,IR,1681418684
463,wakkanai,45.4094,141.6739,2.77,2.77,61,4.15,JP,1681418684
464,svetlyy,54.675,20.1347,10.03,10.03,100,3.22,RU,1681418684
465,igrim,63.1906,64.4162,-17.17,-17.17,52,1.66,RU,1681418684
466,luanda,-8.8368,13.2343,27.0,27.0,75,2.06,AO,1681418542
467,vanavara,60.34,102.2797,-2.75,-2.75,100,5.31,RU,1681418685
468,port macquarie,-31.4333,152.9167,16.05,16.05,75,5.65,AU,1681418685
469,nabinagar,23.8917,90.9733,24.93,24.93,38,3.32,BD,1681418685
470,kondinskoye,59.6481,67.41,-12.1,-12.1,78,3.81,RU,1681418686
471,pietarsaari,63.65,22.6833,1.11,-1.17,46,5.52,FI,1681418686
472,daitari,21.1,85.75,26.19,26.19,1,1.04,IN,1681418686
473,plouzane,48.3833,-4.6167,9.03,7.18,75,4.12,FR,1681418686
474,karoi,-16.8099,29.6925,17.36,17.36,100,2.18,ZW,1681418687
475,pochutla,15.7432,-96.4661,31.57,30.9,10,4.41,MX,1681418687
476,cabo san lucas,22.8909,-109.9124,29.78,23.92,20,6.69,MX,1681418580
477,constitucion,-35.3333,-72.4167,15.88,15.88,40,3.73,CL,1681418687
478,aitape,-3.1374,142.3475,25.38,25.38,34,2.34,PG,1681418687
479,mongo,12.1844,18.693,33.71,33.71,66,0.6,TD,1681418688
480,ngunguru,-35.6167,174.5,19.06,19.06,12,4.77,NZ,1681418688
481,traverse city,44.7631,-85.6206,29.04,22.11,40,6.17,US,1681418407
482,prestea,5.4327,-2.1428,26.04,26.04,50,1.49,GH,1681418688
483,adrar,20.5022,-10.0711,28.56,28.56,95,2.3,MR,1681418689
484,augusto correa,-1.0217,-46.635,25.78,25.78,95,2.17,BR,1681418689
485,planeta rica,8.4147,-75.5883,30.78,30.78,100,3.84,CO,1681418689
486,guican,6.4618,-72.4113,13.17,13.17,100,0.55,CO,1681418689
487,lazaro cardenas,17.9583,-102.2,29.7,29.7,5,5.76,MX,1681418690
488,la joya,18.6667,-99.4667,33.55,32.73,63,1.89,MX,1681418690
489,natchitoches,31.7668,-93.1335,22.99,21.47,40,2.57,US,1681418591
490,alta,69.9689,23.2717,1.59,0.11,0,4.12,NO,1681418691
491,charters towers,-20.1,146.2667,21.78,21.78,62,3.38,AU,1681418691
492,nova era,-19.75,-43.0375,21.27,21.27,100,0.38,BR,1681418691
493,thinadhoo,0.5333,72.9333,27.93,27.93,44,3.22,MV,1681418521
494,kautokeino,69.0125,23.0412,-1.47,-1.47,100,9.44,NO,1681418692
495,dargaville,-35.9333,173.8833,18.34,18.34,22,3.3,NZ,1681418692
496,saldanha,-33.0117,17.9442,14.03,14.03,20,3.55,ZA,1681418693
497,tanout,14.9709,8.8879,26.78,26.78,89,5.14,NE,1681418693
498,ponta delgada,37.7333,-25.6667,17.4,17.4,20,3.09,PT,1681418693
499,vestmanna,62.1564,-7.1664,5.51,5.51,75,2.57,FO,1681418693
500,moroto,2.5345,34.6666,20.44,20.44,100,3.55,UG,1681418694
501,bonfim,3.0833,-59.95,36.81,36.81,99,3.07,BR,1681418694
502,cascais,38.6979,-9.4215,14.41,12.64,20,8.94,PT,1681418694
503,dunedin,-45.8742,170.5036,12.67,12.67,100,2.24,NZ,1681418694
504,paita,-5.0892,-81.1144,28.3,28.3,75,5.11,PE,1681418695
505,taltal,-25.4,-70.4833,21.01,21.01,18,4.03,CL,1681418420
506,lianzhou,24.7811,112.3825,22.34,22.34,100,1.38,CN,1681418695
507,vavoua,7.3819,-6.4778,26.99,26.99,40,1.94,CI,1681418695
508,paciran,-6.8767,112.3761,25.02,25.02,83,4.61,ID,1681418696
509,opuwo,-18.0607,13.84,25.08,25.08,100,2.2,NA,1681418696
510,acari,-15.4311,-74.6158,26.47,26.47,19,4.35,PE,1681418696
511,falmouth,50.1544,-5.0711,9.32,8.5,100,4.63,GB,1681418557
512,alofi,-19.0595,-169.9187,27.94,27.94,75,7.2,NU,1681418696
513,sao jose do belmonte,-7.8614,-38.7597,25.56,25.56,68,0.86,BR,1681418697
514,honiara,-9.4333,159.95,26.79,26.79,75,0.76,SB,1681418698
515,rudbar,30.15,62.6,27.86,27.86,33,0.13,AF,1681418698
516,farsund,58.0948,6.8047,6.64,6.64,80,9.57,NO,1681418698
517,lagos,6.5833,3.75,29.18,29.18,85,2.31,NG,1681418578
518,awbari,26.5921,12.7805,21.58,21.58,28,6.29,LY,1681418641
519,araouane,18.9048,-3.5265,29.5,29.5,63,4.78,ML,1681418699
520,jermuk,39.8417,45.6723,0.1,0.1,100,2.76,AM,1681418699
521,ulaanbaatar,47.9077,106.8832,-14.93,-14.93,0,1.0,MN,1681418683
522,yantzaza,-3.8278,-78.7594,27.28,27.28,62,1.03,EC,1681418700
523,lorengau,-2.0226,147.2712,27.92,27.92,78,5.95,PG,1681418700
524,parvatipuram,18.7833,83.4333,28.45,28.45,17,0.91,IN,1681418700
525,yangjiang,21.85,111.9667,22.77,22.77,100,2.19,CN,1681418616
526,sasykoli,47.5515,46.9968,11.77,11.77,100,9.11,RU,1681418701
527,umea,63.8284,20.2597,-0.04,-0.04,0,2.57,SE,1681418488
528,yuzhno-sukhokumsk,44.6581,45.6436,11.58,11.58,100,8.92,RU,1681418704
529,khilok,51.3674,110.4676,-8.93,-8.93,100,1.25,RU,1681418704
530,ayan,56.45,138.1667,-3.75,-3.75,100,6.69,RU,1681418705
531,mirabad,30.4362,61.8383,29.0,29.0,57,3.32,AF,1681418705
532,zhukovka,53.534,33.728,11.15,10.67,100,2.3,RU,1681418705
533,auki,-8.7676,160.7034,26.39,26.39,84,1.57,SB,1681418706
